,City,Cloudiness,Country,Date,Humidity,Lat,Lng,Max Temp,Wind Speed
0,arraial do cabo,0.0,BR,1540224000.0,50.0,-22.97,-42.02,78.8,16.11
1,lavrentiya,8.0,RU,1540226072.0,100.0,65.58,-170.99,37.25,24.52
2,codrington,0.0,AU,1540226072.0,95.0,-28.95,153.24,55.7,2.37
3,punta arenas,0.0,CL,1540224000.0,89.0,-53.16,-70.91,48.2,6.93
4,rikitea,80.0,PF,1540226073.0,100.0,-23.12,-134.97,70.46,4.72
5,siddapur,20.0,IN,1540226073.0,94.0,13.66,74.91,70.37,1.7
6,mataura,24.0,NZ,1540226074.0,67.0,-46.19,168.86,52.33,7.4
7,wollongong,0.0,AU,1540224000.0,82.0,-34.42,150.89,62.6,2.37
8,kapaa,40.0,US,1540223760.0,78.0,22.08,-159.32,77.0,14.99
9,igarka,92.0,RU,1540226075.0,93.0,67.47,86.57,28.88,9.98
10,touros,0.0,BR,1540226075.0,61.0,-5.2,-35.46,85.76,17.81
11,pleshanovo,88.0,RU,1540224000.0,93.0,57.46,28.17,48.2,11.18
12,ushuaia,40.0,AR,1540224000.0,68.0,-54.81,-68.31,48.2,28.86
13,cullen,1.0,US,1540224900.0,58.0,32.97,-93.45,59.0,3.36
14,husavik,12.0,CA,1540226076.0,80.0,50.56,-96.99,41.75,16.69
15,constitucion,90.0,MX,1540223160.0,100.0,23.99,-104.67,57.2,4.7
16,busselton,24.0,AU,1540226077.0,100.0,-33.64,115.35,53.5,4.72
17,luderitz,0.0,NA,1540224000.0,37.0,-26.65,15.16,86.0,6.93
18,sinnamary,8.0,GF,1540226077.0,86.0,5.38,-52.96,84.59,12.44
19,mar del plata,0.0,AR,1540226078.0,61.0,-46.43,-67.52,52.87,2.15
20,akropong,20.0,GH,1540224000.0,74.0,5.97,-0.09,86.0,14.99
21,dikson,0.0,RU,1540226078.0,100.0,73.51,80.55,19.57,18.03
22,hilo,90.0,US,1540223580.0,88.0,19.71,-155.08,68.0,8.05
23,klaksvik,92.0,FO,1540223400.0,93.0,62.23,-6.59,48.2,35.57
24,lompoc,90.0,US,1540223760.0,82.0,34.64,-120.46,62.6,4.83
25,marquette,5.0,US,1540223760.0,52.0,46.54,-87.4,48.2,12.75
26,port lincoln,80.0,AU,1540225872.0,91.0,-34.72,135.86,57.5,17.02
27,mahebourg,92.0,MU,1540226080.0,100.0,-20.41,57.7,69.88,9.98
28,sesvete,90.0,HR,1540224000.0,71.0,45.83,16.11,53.6,8.05
29,cidreira,8.0,BR,1540226081.0,75.0,-30.17,-50.22,79.78,3.27
30,hamilton,75.0,BM,1540223700.0,56.0,32.3,-64.78,73.4,13.87
31,anadyr,75.0,RU,1540224000.0,92.0,64.73,177.51,15.8,6.71
32,alushta,64.0,UA,1540225894.0,100.0,44.68,34.41,59.21,2.37
33,morro bay,90.0,US,1540224660.0,100.0,35.37,-120.85,57.2,3.94
34,jamestown,0.0,AU,1540226083.0,66.0,-33.21,138.6,51.38,9.86
35,san cristobal,75.0,EC,1540224000.0,34.0,-0.39,-78.55,68.0,4.7
36,tilichiki,0.0,RU,1540226083.0,81.0,60.47,166.1,7.91,2.93
37,pierre,1.0,US,1540223580.0,70.0,44.37,-100.35,46.4,3.36
38,souillac,0.0,FR,1540224000.0,49.0,45.6,-0.6,68.0,18.34
39,severo-kurilsk,56.0,RU,1540226084.0,96.0,50.68,156.12,41.66,14.0
40,canavieiras,90.0,BR,1540224000.0,88.0,-15.68,-38.95,77.0,6.93
41,tougue,32.0,GN,1540226085.0,53.0,11.45,-11.68,84.37,5.73
42,zhengjiatun,92.0,CN,1540226085.0,96.0,43.51,123.51,46.34,6.17
43,upernavik,0.0,GL,1540226085.0,100.0,72.79,-56.15,16.01,15.01
44,seymchan,0.0,RU,1540226086.0,100.0,62.93,152.39,-9.78,2.59
45,butaritari,68.0,KI,1540226086.0,100.0,3.07,172.79,84.14,9.19
46,puerto ayora,20.0,EC,1540224000.0,61.0,-0.74,-90.35,78.8,18.34
47,grand gaube,92.0,MU,1540226087.0,100.0,-20.01,57.66,71.81,9.08
48,geraldton,90.0,CA,1540224000.0,80.0,49.72,-86.95,39.2,4.5
49,graham,1.0,US,1540224900.0,43.0,36.07,-79.4,55.4,8.05
50,ancud,24.0,CL,1540226088.0,65.0,-41.87,-73.83,57.23,4.72
51,leningradskiy,32.0,RU,1540226148.0,100.0,69.38,178.42,21.68,9.64
52,thompson,90.0,CA,1540224000.0,79.0,55.74,-97.86,24.8,13.87
53,cape town,0.0,ZA,1540224000.0,36.0,-33.93,18.42,80.6,9.17
54,kudahuvadhoo,92.0,MV,1540226149.0,100.0,2.67,72.89,83.69,8.75
55,port elizabeth,1.0,US,1540224420.0,60.0,39.31,-74.98,51.8,4.7
56,raudeberg,75.0,NO,1540223400.0,87.0,61.99,5.14,44.6,25.28
57,san patricio,8.0,PY,1540226150.0,56.0,-26.98,-56.83,86.93,4.61
58,qaanaaq,0.0,GL,1540226151.0,100.0,77.48,-69.36,5.93,16.24
59,sangar,92.0,RU,1540226151.0,82.0,63.92,127.47,21.37,6.73
60,rayong,20.0,TH,1540224000.0,88.0,12.68,101.28,78.8,4.7
61,pilikwe,64.0,BW,1540226152.0,33.0,-22.8,27.19,64.03,15.01
62,luganville,88.0,VU,1540226152.0,100.0,-15.51,167.18,76.45,17.02
63,diego de almagro,8.0,CL,1540226153.0,80.0,-26.39,-70.05,66.55,3.94
64,bluff,80.0,AU,1540226153.0,95.0,-23.58,149.07,67.58,7.96
65,tarakan,12.0,ID,1540226153.0,100.0,3.3,117.63,80.63,2.59
66,rehoboth,88.0,NA,1540226154.0,100.0,-23.31,17.08,58.22,5.28
67,camacha,40.0,PT,1540224000.0,77.0,33.08,-16.33,71.6,9.17
68,prince rupert,90.0,CA,1540224000.0,50.0,54.32,-130.32,55.4,9.17
69,bacungan,75.0,PH,1540220400.0,94.0,9.87,118.73,78.8,4.7
70,saskylakh,20.0,RU,1540226155.0,61.0,71.97,114.09,1.25,5.17
71,walvis bay,12.0,NA,1540224000.0,53.0,-22.95,14.51,71.6,8.05
72,novo aripuana,8.0,BR,1540226156.0,42.0,-5.12,-60.38,97.19,3.38
73,ribeira grande,40.0,PT,1540224000.0,68.0,38.52,-28.7,71.6,20.8
74,moroto,20.0,UG,1540226157.0,50.0,2.53,34.66,72.4,10.65
75,kodiak,1.0,US,1540223580.0,67.0,39.95,-94.76,57.2,4.7
76,irricana,5.0,CA,1540224000.0,69.0,51.32,-113.6,33.8,5.82
77,sao felix do xingu,0.0,BR,1540226157.0,75.0,-6.64,-51.99,86.48,2.15
78,lebu,0.0,ET,1540226158.0,79.0,8.96,38.73,53.63,5.17
79,mananjary,0.0,MG,1540226158.0,32.0,-19.16,46.8,53.77,5.95
80,port hardy,40.0,CA,1540224000.0,93.0,50.7,-127.42,35.6,3.83
81,saint george,75.0,GR,1540223400.0,72.0,39.45,22.34,64.4,16.11
82,saint-pierre,40.0,FR,1540224000.0,76.0,48.95,4.24,60.8,25.28
83,alyangula,100.0,AU,1540226160.0,96.0,-13.85,136.42,83.15,11.77
84,vao,56.0,EE,1540226161.0,90.0,59.1,26.19,44.27,12.21
85,bethel,75.0,US,1540223580.0,75.0,60.79,-161.76,42.8,6.93
86,kerouane,75.0,GN,1540224000.0,53.0,12.23,-12.34,95.0,4.7
87,canby,40.0,US,1540225020.0,93.0,45.26,-122.69,46.4,2.82
88,daboh,32.0,ID,1540226163.0,100.0,5.32,95.87,77.12,3.49
89,luxor,64.0,EG,1540226163.0,33.0,25.7,32.65,77.98,2.71
90,stara zagora,12.0,BG,1540226163.0,87.0,42.42,25.63,44.09,3.38
91,bredasdorp,0.0,ZA,1540224000.0,53.0,-34.53,20.04,71.6,11.41
92,peniche,40.0,PT,1540224000.0,56.0,39.36,-9.38,78.8,10.29
93,chokurdakh,80.0,RU,1540226164.0,81.0,70.62,147.9,12.23,9.75
94,tasiilaq,20.0,GL,1540223400.0,45.0,65.61,-37.64,24.8,18.34
95,tiarei,75.0,PF,1540224000.0,73.0,-17.53,-149.33,77.0,5.82
96,eresos,20.0,GR,1540223400.0,60.0,39.17,25.93,68.0,16.02
97,nouadhibou,92.0,MR,1540224000.0,65.0,20.93,-17.03,77.0,20.8
98,crotone,0.0,IT,1540223400.0,77.0,39.09,17.12,64.4,2.24
99,el alto,75.0,BO,1540224000.0,62.0,-16.5,-68.19,53.6,8.05
100,hermanus,0.0,ZA,1540226167.0,45.0,-34.42,19.24,75.5,1.59
101,cabo san lucas,40.0,MX,1540223040.0,58.0,22.89,-109.91,84.2,10.09
102,tshikapa,64.0,CD,1540226227.0,85.0,-6.42,20.79,75.77,2.04
103,nefteyugansk,0.0,RU,1540224000.0,100.0,61.09,72.61,19.4,6.71
104,barrow,76.0,AR,1540226228.0,49.0,-38.31,-60.23,63.4,15.35
105,saint-augustin,0.0,FR,1540224000.0,39.0,44.83,-0.61,68.0,14.99
106,aguimes,20.0,ES,1540224000.0,61.0,27.91,-15.45,77.0,19.46
107,victoria,75.0,BN,1540224000.0,94.0,5.28,115.24,78.8,4.16
108,pitimbu,75.0,BR,1540220400.0,45.0,-7.47,-34.81,87.8,14.99
109,atuona,8.0,PF,1540226229.0,98.0,-9.8,-139.03,80.72,18.48
110,kloulklubed,90.0,PW,1540223400.0,94.0,7.04,134.26,77.0,9.17
111,hobart,0.0,AU,1540224000.0,58.0,-42.88,147.33,59.0,10.29
112,wanning,0.0,AT,1540223400.0,58.0,48.64,13.53,55.4,6.93
113,turukhansk,88.0,RU,1540226230.0,84.0,65.8,87.96,29.6,11.21
114,santa fe,92.0,AR,1540226039.0,95.0,-31.62,-60.7,64.03,15.46
115,galle,92.0,US,1540223760.0,63.0,29.74,-97.91,60.8,4.61
116,cherskiy,68.0,RU,1540226231.0,84.0,68.75,161.3,9.35,4.94
117,kaitangata,8.0,NZ,1540226231.0,75.0,-46.28,169.85,46.52,2.71
118,bafq,64.0,IR,1540226232.0,59.0,31.6,55.4,58.63,1.7
119,pryazha,44.0,RU,1540224000.0,93.0,61.69,33.62,41.0,6.71
120,ponta do sol,0.0,BR,1540226232.0,56.0,-20.63,-46.0,81.53,7.85
121,port alfred,0.0,ZA,1540226233.0,72.0,-33.59,26.89,69.07,22.28
122,dubbo,0.0,AU,1540224000.0,82.0,-32.25,148.6,57.2,6.93
123,albany,75.0,US,1540223640.0,58.0,42.65,-73.75,46.4,5.82
124,muncar,80.0,ID,1540226234.0,97.0,-8.43,114.34,76.72,5.5
125,suzhou,0.0,CN,1540226234.0,98.0,31.3,120.58,57.41,8.75
126,kirensk,68.0,RU,1540226234.0,86.0,57.78,108.12,20.47,4.16
127,dhidhdhoo,20.0,MV,1540226235.0,100.0,6.88,73.1,82.61,7.85
128,ambilobe,36.0,MG,1540226235.0,93.0,-13.19,49.05,72.22,2.04
129,khatanga,0.0,RU,1540226235.0,67.0,71.98,102.47,-9.01,3.15
130,hinton,0.0,CA,1540226236.0,39.0,53.4,-117.57,40.94,3.04
131,cockburn town,88.0,TC,1540226236.0,100.0,21.46,-71.14,81.89,12.66
132,berlevag,75.0,NO,1540223400.0,100.0,70.86,29.09,35.6,6.93
133,egvekinot,0.0,RU,1540226237.0,62.0,66.32,-179.17,-0.24,2.15
134,areka,68.0,ET,1540226237.0,55.0,7.07,37.71,66.68,3.94
135,pleasant point,8.0,NZ,1540226237.0,100.0,-44.26,171.13,46.25,2.82
136,bhadrachalam,56.0,IN,1540226238.0,85.0,17.67,80.89,76.27,3.38
137,inhambane,75.0,MZ,1540220400.0,68.0,-23.87,35.38,69.8,9.17
138,cayenne,75.0,GF,1540224000.0,52.0,4.94,-52.33,91.4,10.29
139,grindavik,75.0,IS,1540224000.0,86.0,63.84,-22.43,41.0,19.46
140,clyde river,75.0,CA,1540224000.0,78.0,70.47,-68.59,14.0,14.99
141,buraydah,75.0,SA,1540224000.0,58.0,26.33,43.97,82.4,2.24
142,moron,75.0,VE,1540224000.0,62.0,10.49,-68.2,84.2,2.37
143,carnarvon,0.0,ZA,1540226240.0,29.0,-30.97,22.13,67.58,8.97
144,esperance,40.0,TT,1540224000.0,83.0,10.24,-61.45,82.4,9.17
145,avarua,75.0,CK,1540224000.0,73.0,-21.21,-159.78,69.8,2.24
146,moosomin,0.0,CA,1540226241.0,59.0,50.14,-101.67,41.21,12.44
147,lubango,68.0,AO,1540226241.0,88.0,-14.92,13.49,67.85,2.15
148,yellowknife,90.0,CA,1540224000.0,92.0,62.45,-114.38,28.4,17.22
149,salalah,20.0,OM,1540223400.0,74.0,17.01,54.1,80.6,3.15
150,tuktoyaktuk,75.0,CA,1540224000.0,92.0,69.44,-133.03,24.8,14.99
151,saint-philippe,90.0,CA,1540224900.0,51.0,45.36,-73.48,41.0,3.36
152,dong hoi,92.0,VN,1540226303.0,99.0,17.48,106.6,80.81,13.11
153,lamar,1.0,US,1540223580.0,50.0,38.09,-102.62,53.6,5.5
154,kharhial,32.0,IN,1540226303.0,96.0,20.28,82.77,68.39,2.04
155,pevek,76.0,RU,1540226303.0,100.0,69.7,170.27,21.86,13.67
156,kavaratti,0.0,IN,1540226303.0,100.0,10.57,72.64,84.37,5.61
157,tarko-sale,68.0,RU,1540226304.0,93.0,64.92,77.78,18.71,6.96
158,nanortalik,92.0,GL,1540226304.0,95.0,60.14,-45.24,36.26,4.72
159,rumonge,12.0,BI,1540226305.0,83.0,-3.97,29.44,78.74,7.63
160,ulladulla,0.0,AU,1540220400.0,100.0,-35.36,150.48,55.4,10.98
161,nome,1.0,US,1540224900.0,59.0,30.04,-94.42,64.4,6.93
162,riverton,1.0,US,1540223700.0,52.0,43.02,-108.38,48.2,4.7
163,kavieng,44.0,PG,1540226306.0,100.0,-2.57,150.8,83.02,2.04
164,bubaque,20.0,GW,1540224000.0,52.0,11.28,-15.83,91.4,2.24
165,colesberg,20.0,ZA,1540226307.0,32.0,-30.72,25.1,62.45,6.62
166,new norfolk,0.0,AU,1540224000.0,58.0,-42.78,147.06,59.0,10.29
167,matagami,88.0,NG,1540226307.0,64.0,9.67,8.4,78.65,3.15
168,kruisfontein,0.0,ZA,1540226308.0,57.0,-34.0,24.73,69.56,15.9
169,vaini,20.0,IN,1540226308.0,93.0,15.34,74.49,67.9,1.92
170,leshukonskoye,80.0,RU,1540226308.0,86.0,64.9,45.76,42.74,14.67
171,bindura,0.0,ZW,1540226309.0,40.0,-17.3,31.33,62.68,10.87
172,norman wells,90.0,CA,1540224000.0,100.0,65.28,-126.83,26.6,3.6
173,sochi,75.0,RU,1540224000.0,93.0,43.6,39.73,60.8,6.71
174,vanimo,80.0,PG,1540226309.0,100.0,-2.67,141.3,79.46,7.4
175,itaituba,40.0,BR,1540224000.0,56.0,-4.26,-55.99,93.2,11.41
176,bilma,0.0,NE,1540226310.0,17.0,18.69,12.92,84.32,6.73
177,maningrida,0.0,AU,1540226310.0,87.0,-12.05,134.23,80.18,3.71
178,ust-maya,0.0,RU,1540226311.0,77.0,60.42,134.54,8.95,2.59
179,tombouctou,0.0,ML,1540226311.0,16.0,16.77,-3.01,95.93,6.17
180,anori,24.0,BR,1540226311.0,78.0,-3.74,-61.66,86.48,3.71
181,kisangani,32.0,CD,1540226312.0,87.0,0.52,25.21,78.97,0.47
182,tiksi,12.0,RU,1540226312.0,77.0,71.64,128.87,7.1,12.88
183,guadalupe y calvo,92.0,MX,1540226312.0,93.0,26.09,-106.96,58.9,2.26
184,mastic beach,90.0,US,1540224900.0,45.0,40.77,-72.85,50.0,10.29
185,oktyabrskoye,88.0,RU,1540226313.0,84.0,56.73,85.44,32.08,6.85
186,qeshm,20.0,IR,1540224000.0,62.0,26.96,56.27,87.8,9.17
187,gilbues,20.0,BR,1540226314.0,65.0,-9.83,-45.34,85.58,8.41
188,aykhal,92.0,RU,1540226314.0,89.0,65.95,111.51,20.51,2.93
189,nishihara,75.0,JP,1540224000.0,67.0,35.74,139.53,62.6,12.75
190,rundu,92.0,NA,1540226314.0,26.0,-17.91,19.77,83.65,12.1
191,suez,0.0,EG,1540226315.0,47.0,29.97,32.54,75.32,4.83
192,kahului,20.0,US,1540224000.0,94.0,20.89,-156.47,75.2,12.75
193,ngunguru,24.0,NZ,1540226316.0,100.0,-35.62,174.5,59.3,4.94
194,katsuura,36.0,JP,1540226316.0,93.0,33.93,134.5,59.53,6.62
195,nuevo progreso,90.0,US,1540225320.0,88.0,26.05,-97.95,68.0,13.87
196,provideniya,0.0,RU,1540226316.0,100.0,64.42,-173.23,36.26,18.81
197,margate,0.0,AU,1540224000.0,58.0,-43.03,147.26,59.0,10.29
198,sacalum,75.0,MX,1540223400.0,74.0,20.5,-89.59,84.2,5.82
199,forbes,20.0,AU,1540226317.0,77.0,-33.38,148.01,53.27,2.82
200,flinders,0.0,AU,1540220400.0,100.0,-34.58,150.85,55.4,4.16
201,kaura namoda,0.0,NG,1540226378.0,28.0,12.59,6.58,81.35,6.96
202,launceston,40.0,AU,1540224000.0,81.0,-41.43,147.14,53.6,11.41
203,nelson bay,0.0,AU,1540224000.0,100.0,-32.72,152.14,57.2,3.36
204,ostrovnoy,68.0,RU,1540226382.0,98.0,68.05,39.51,32.98,12.77
205,uruzgan,0.0,AF,1540226382.0,69.0,32.93,66.63,22.76,1.92
206,totness,1.0,US,1540224900.0,36.0,33.74,-80.8,62.6,4.7
207,chitungwiza,0.0,ZW,1540226383.0,38.0,-18.01,31.07,58.0,14.79
208,mishan,64.0,CN,1540226383.0,87.0,45.55,131.88,48.05,8.63
209,evensk,80.0,RU,1540226383.0,100.0,61.92,159.24,31.18,3.71
210,caraballeda,75.0,VE,1540224000.0,70.0,10.61,-66.85,86.0,6.93
211,pinheiro machado,32.0,BR,1540226384.0,61.0,-31.58,-53.38,76.4,4.94
212,paita,0.0,PE,1540224000.0,60.0,-5.09,-81.11,75.2,12.75
213,almaznyy,92.0,RU,1540226384.0,90.0,48.03,40.04,52.73,6.62
214,nikolskoye,90.0,RU,1540224000.0,81.0,59.7,30.79,46.4,4.47
215,noumea,0.0,NC,1540224000.0,77.0,-22.28,166.46,69.8,3.36
216,pappinisseri,36.0,IN,1540226385.0,97.0,11.94,75.34,73.61,0.81
217,hithadhoo,100.0,MV,1540226385.0,100.0,-0.6,73.08,83.06,7.4
218,taber,20.0,CA,1540224000.0,74.0,49.79,-112.14,37.4,2.24
219,tambovka,56.0,UA,1540226389.0,69.0,46.93,35.45,54.98,8.19
220,sisophon,44.0,KH,1540226389.0,96.0,13.59,102.97,74.65,2.71
221,wahiawa,40.0,US,1540223820.0,94.0,21.5,-158.02,78.8,4.7
222,homer,90.0,US,1540223580.0,81.0,59.64,-151.54,46.4,6.93
223,culaman,80.0,PH,1540226390.0,98.0,5.96,125.66,72.8,2.37
224,guerrero negro,0.0,MX,1540226390.0,61.0,27.97,-114.04,76.13,4.72
225,yumaguzino,0.0,RU,1540226390.0,71.0,52.9,56.39,21.95,1.7
226,east london,0.0,ZA,1540224060.0,72.0,-33.02,27.91,64.4,20.8
227,georgetown,90.0,GY,1540220400.0,100.0,6.8,-58.16,75.2,4.7
228,te anau,68.0,NZ,1540226391.0,77.0,-45.41,167.72,48.86,5.17
229,joshimath,32.0,IN,1540226391.0,76.0,30.57,79.57,14.48,0.47
230,am timan,24.0,TD,1540226391.0,44.0,11.04,20.28,85.63,3.71
231,san jose iturbide,90.0,MX,1540223400.0,72.0,21.0,-100.38,62.6,10.29
232,beaumont,1.0,US,1540224900.0,59.0,30.09,-94.1,64.4,6.93
233,owando,56.0,CG,1540226392.0,95.0,-0.49,15.91,74.2,2.71
234,bambous virieux,92.0,MU,1540226392.0,100.0,-20.34,57.76,69.88,9.98
235,dutse,0.0,NG,1540226393.0,16.0,11.76,9.34,86.12,10.09
236,pyapon,88.0,MM,1540226393.0,94.0,16.29,95.68,79.73,9.19
237,kingisepp,88.0,RU,1540226393.0,89.0,59.38,28.61,44.05,6.4
238,waipawa,0.0,NZ,1540226393.0,87.0,-39.94,176.59,41.35,2.48
239,lata,0.0,IN,1540226394.0,68.0,30.78,78.62,40.22,2.71
240,rio gallegos,0.0,AR,1540224000.0,34.0,-51.62,-69.22,51.8,12.75
241,korem,8.0,ET,1540226394.0,93.0,12.51,39.52,53.05,1.14
242,torbay,90.0,CA,1540224000.0,100.0,47.66,-52.73,46.4,8.05
243,college,75.0,US,1540223580.0,92.0,64.86,-147.8,28.4,3.36
244,caranavi,20.0,BO,1540226395.0,59.0,-15.83,-67.57,81.58,2.37
245,nago,0.0,IT,1540223400.0,42.0,45.88,10.89,64.4,4.7
246,mumford,32.0,GH,1540226396.0,86.0,5.26,-0.76,80.32,10.76
247,itoman,75.0,JP,1540224000.0,65.0,26.12,127.67,77.0,3.36
248,canala,0.0,NC,1540224000.0,77.0,-21.52,165.96,69.8,3.36
249,sao filipe,68.0,CV,1540226397.0,90.0,14.9,-24.5,81.22,13.89
250,puttur,0.0,IN,1540225800.0,83.0,12.76,75.2,80.6,2.59
251,aparecida do taboado,0.0,BR,1540226457.0,63.0,-20.08,-51.1,87.2,8.86
252,aripuana,12.0,BR,1540226457.0,50.0,-9.17,-60.63,94.76,2.37
253,havre-saint-pierre,90.0,CA,1540224000.0,64.0,50.23,-63.6,33.8,9.17
254,hammerfest,75.0,NO,1540225200.0,75.0,70.66,23.68,42.8,10.29
255,valea lui mihai,0.0,RO,1540224900.0,71.0,47.52,22.13,55.4,2.24
256,chuy,80.0,UY,1540226459.0,79.0,-33.69,-53.46,72.44,13.78
257,arman,20.0,RU,1540224000.0,100.0,59.7,150.17,14.0,2.37
258,kargat,92.0,RU,1540226459.0,89.0,55.19,80.28,31.63,11.77
259,coleraine,20.0,GB,1540225200.0,76.0,55.13,-6.67,53.6,18.34
260,znamenskoye,44.0,RU,1540226460.0,74.0,57.13,73.82,26.32,10.2
261,sept-iles,90.0,CA,1540224900.0,59.0,50.2,-66.38,35.6,4.7
262,kihei,20.0,US,1540224000.0,94.0,20.76,-156.45,75.2,12.75
263,pingliang,48.0,CN,1540226461.0,75.0,35.54,106.68,31.94,2.71
264,genhe,36.0,CN,1540226461.0,93.0,50.78,121.52,29.15,2.82
265,port moresby,75.0,PG,1540224000.0,94.0,-9.47,147.16,75.2,1.12
266,dingle,44.0,PH,1540226462.0,94.0,11.0,122.67,76.13,5.17
267,cantapoy,32.0,PH,1540226463.0,100.0,9.49,125.44,78.7,3.49
268,tangzhai,92.0,CN,1540226463.0,98.0,26.73,109.0,53.81,2.93
269,murayama,32.0,JP,1540226463.0,81.0,38.52,140.33,31.67,1.92
270,kisesa,75.0,TZ,1540224000.0,50.0,-2.55,33.05,78.8,9.98
271,bell ville,92.0,AR,1540226464.0,94.0,-32.63,-62.69,64.97,10.54
272,half moon bay,90.0,US,1540223760.0,76.0,37.46,-122.43,55.4,4.7
273,ormara,0.0,PK,1540226465.0,79.0,25.21,64.64,80.77,12.66
274,sheregesh,88.0,RU,1540226465.0,91.0,52.93,87.98,30.28,5.06
275,talnakh,56.0,RU,1540226466.0,78.0,69.49,88.39,25.73,8.97
276,batticaloa,68.0,LK,1540226466.0,100.0,7.71,81.69,75.73,4.72
277,havre,1.0,US,1540223580.0,64.0,48.55,-109.68,37.4,8.75
278,hovd,75.0,NO,1540225200.0,80.0,63.83,10.7,42.8,10.29
279,kuusamo,0.0,FI,1540225200.0,92.0,65.96,29.19,33.8,9.17
280,namatanai,48.0,PG,1540226468.0,100.0,-3.66,152.44,81.67,2.93
281,delijan,32.0,IR,1540226469.0,87.0,33.99,50.69,47.42,2.37
282,mwene-ditu,76.0,CD,1540226469.0,75.0,-7.01,23.45,73.12,5.84
283,sitka,0.0,US,1540226470.0,42.0,37.17,-99.65,71.63,6.4
284,nizwa,20.0,OM,1540226470.0,53.0,22.93,57.53,72.71,2.93
285,scunthorpe,20.0,GB,1540225200.0,58.0,53.59,-0.65,55.4,11.41
286,padang,92.0,ID,1540226470.0,100.0,-0.92,100.36,77.84,5.17
287,milyutinskaya,88.0,RU,1540226471.0,54.0,48.63,41.67,57.86,9.42
288,seoul,20.0,KR,1540225800.0,71.0,37.57,126.98,53.6,1.12
289,caravelas,0.0,BR,1540226471.0,100.0,-17.73,-39.27,75.28,15.79
290,puerto carreno,75.0,CO,1540224000.0,70.0,6.19,-67.49,86.0,3.27
291,puerto narino,75.0,CO,1540224000.0,66.0,-3.77,-70.38,87.8,3.6
292,benguela,44.0,AO,1540226472.0,98.0,-12.58,13.4,76.63,5.28
293,lyuban,0.0,BY,1540226473.0,80.0,52.8,28.0,41.03,9.53
294,kombissiri,0.0,BF,1540224000.0,25.0,12.07,-1.34,96.8,9.17
295,brookhaven,90.0,US,1540224900.0,45.0,40.78,-72.92,50.0,10.29
296,jaffna,36.0,LK,1540226339.0,99.0,9.67,80.01,84.73,7.96
297,tiznit,100.0,MA,1540226477.0,99.0,29.7,-9.73,65.38,3.49
298,abashiri,0.0,JP,1540226477.0,76.0,44.01,144.25,29.83,3.94
299,hofn,75.0,IS,1540224000.0,93.0,64.25,-15.21,37.4,5.82
300,olhao,20.0,PT,1540224000.0,73.0,37.03,-7.84,73.4,6.93
301,huangnihe,92.0,CN,1540226538.0,90.0,43.56,128.02,43.46,3.94
302,ust-omchug,12.0,RU,1540226539.0,65.0,61.13,149.63,-6.09,2.48
303,bodden town,40.0,KY,1540224000.0,70.0,19.28,-81.25,87.8,17.22
304,zhezkazgan,0.0,KZ,1540226539.0,62.0,47.8,67.71,32.12,10.65
305,laguna,20.0,MX,1540222920.0,65.0,27.52,-110.01,82.4,5.82
306,veraval,0.0,FR,1540225800.0,62.0,49.65,0.71,55.4,10.29
307,si sa ket,68.0,TH,1540224000.0,88.0,15.12,104.33,80.6,2.24
308,aklavik,75.0,CA,1540224000.0,92.0,68.22,-135.01,26.6,9.17
309,canto do buriti,8.0,BR,1540226541.0,51.0,-8.11,-42.94,91.16,12.33
310,narsaq,75.0,GL,1540223400.0,83.0,60.91,-46.05,33.8,1.12
311,sabha,0.0,LY,1540226541.0,28.0,27.03,14.43,79.01,6.4
312,zirandaro,20.0,MX,1540226542.0,76.0,18.45,-100.98,80.18,3.27
313,castro,24.0,CL,1540226542.0,72.0,-42.48,-73.76,55.57,4.61
314,huarmey,8.0,PE,1540226542.0,51.0,-10.07,-78.15,75.73,4.61
315,bosaso,32.0,SO,1540226543.0,100.0,11.28,49.18,79.64,11.65
316,vestmanna,92.0,FO,1540225200.0,87.0,62.16,-7.17,50.0,42.5
317,sambava,88.0,MG,1540226544.0,100.0,-14.27,50.17,75.82,17.25
318,meulaboh,56.0,ID,1540226544.0,100.0,4.14,96.13,79.1,3.38
319,dasoguz,0.0,TM,1540224000.0,46.0,41.84,59.97,53.6,9.17
320,itarema,20.0,BR,1540226545.0,48.0,-2.92,-39.92,90.89,18.37
321,fortuna,20.0,ES,1540225800.0,78.0,38.18,-1.13,77.0,8.05
322,baykit,92.0,RU,1540226545.0,94.0,61.68,96.39,27.35,3.15
323,takoradi,36.0,GH,1540226546.0,99.0,4.89,-1.75,80.63,7.74
324,puerto escondido,5.0,MX,1540222860.0,74.0,15.86,-97.07,80.6,7.74
325,vila do maio,75.0,CV,1540224000.0,62.0,15.13,-23.22,86.0,17.22
326,pangody,32.0,RU,1540226504.0,78.0,65.85,74.49,6.88,3.6
327,ekhabi,12.0,RU,1540226547.0,89.0,53.51,142.97,28.88,7.29
328,sri aman,20.0,MY,1540224000.0,100.0,1.24,111.46,73.4,2.04
329,pochutla,5.0,MX,1540223100.0,58.0,15.74,-96.47,87.8,7.18
330,longyearbyen,75.0,NO,1540223400.0,94.0,78.22,15.63,39.2,19.46
331,yelatma,0.0,RU,1540226548.0,92.0,54.97,41.75,35.05,7.18
332,skjervoy,40.0,NO,1540225200.0,60.0,70.03,20.97,42.8,12.75
333,timmins,90.0,CA,1540224000.0,86.0,48.48,-81.33,33.8,6.93
334,inuvik,90.0,CA,1540224000.0,92.0,68.36,-133.71,26.6,4.7
335,aljezur,0.0,PT,1540226549.0,89.0,37.31,-8.8,69.11,3.38
336,saint-paul,0.0,FR,1540225800.0,36.0,45.22,1.9,66.2,11.41
337,christchurch,20.0,NZ,1540224000.0,93.0,-43.53,172.64,55.4,11.41
338,marzuq,12.0,YE,1540226550.0,69.0,14.4,46.47,59.3,2.59
339,warri,88.0,NG,1540226550.0,88.0,5.52,5.75,78.74,6.73
340,pangnirtung,20.0,CA,1540224000.0,72.0,66.15,-65.72,12.2,2.24
341,medowie,0.0,AU,1540224000.0,100.0,-32.73,151.85,57.2,3.36
342,oktyabrskiy,0.0,RU,1540224000.0,64.0,55.61,37.97,42.8,6.71
343,alice springs,20.0,AU,1540224000.0,16.0,-23.7,133.88,73.4,9.31
344,kholm,92.0,RU,1540226552.0,96.0,57.15,31.18,46.75,16.69
345,tuatapere,20.0,NZ,1540226552.0,77.0,-46.13,167.69,58.63,12.21
346,mogadishu,92.0,SO,1540226553.0,100.0,2.04,45.34,80.32,10.76
347,samarai,92.0,PG,1540226553.0,100.0,-10.62,150.67,74.38,8.19
348,ahipara,24.0,NZ,1540226553.0,100.0,-35.17,173.16,53.95,3.83
349,bereda,0.0,ES,1540225800.0,59.0,43.27,-7.54,66.2,13.87
350,tautira,75.0,PF,1540224000.0,73.0,-17.73,-149.15,77.0,5.82
351,monte gordo,20.0,ES,1540224000.0,73.0,37.18,-7.45,73.4,6.93
352,dreux,0.0,FR,1540225800.0,62.0,48.74,1.37,55.4,8.05
353,miranda,75.0,CO,1540224000.0,61.0,3.25,-76.23,78.8,4.7
354,valparaiso,1.0,US,1540224900.0,46.0,41.47,-87.06,53.6,9.17
355,jumla,20.0,NP,1540226616.0,95.0,29.28,82.18,26.23,2.26
356,uinskoye,92.0,RU,1540226616.0,75.0,56.88,56.58,35.72,10.65
357,honiara,40.0,SB,1540224000.0,94.0,-9.43,159.96,75.2,1.7
358,bam,48.0,IR,1540226617.0,48.0,29.11,58.36,62.45,3.49
359,shakawe,92.0,BW,1540226617.0,31.0,-18.36,21.84,80.99,14.23
360,iqaluit,75.0,CA,1540224000.0,67.0,63.75,-68.52,17.6,6.93
361,tevaitoa,44.0,PF,1540226618.0,94.0,-16.78,-151.5,81.13,12.77
362,dalvik,0.0,SE,1540225200.0,75.0,57.79,14.13,44.6,10.29
363,impfondo,68.0,CD,1540226618.0,94.0,1.62,18.06,76.67,2.26
364,shadegan,0.0,IR,1540224000.0,83.0,30.65,48.67,82.4,7.74
365,boende,48.0,CD,1540226619.0,92.0,-0.28,20.88,76.58,2.26
366,izumo,75.0,JP,1540224000.0,76.0,35.37,132.75,57.2,2.24
367,sieradz,90.0,PL,1540225800.0,76.0,51.6,18.74,50.0,5.82
368,hasaki,75.0,JP,1540224000.0,93.0,35.73,140.83,55.4,6.93
369,menongue,88.0,AO,1540226620.0,80.0,-14.66,17.68,65.78,3.38
370,meadow lake,20.0,CA,1540224000.0,80.0,54.13,-108.44,30.2,4.16
371,sao paulo de olivenca,20.0,BR,1540226621.0,60.0,-3.38,-68.87,90.08,2.82
372,erenhot,0.0,CN,1540226621.0,80.0,43.65,111.97,27.8,10.42
373,hirtshals,92.0,DK,1540226622.0,100.0,57.59,9.96,49.45,24.07
374,maceio,40.0,BR,1540224000.0,51.0,-9.67,-35.74,86.0,14.99
375,aksu,90.0,KZ,1540224000.0,72.0,52.04,76.93,32.0,8.95
376,ukiah,1.0,US,1540223760.0,81.0,39.15,-123.21,46.4,1.36
377,marsabit,8.0,KE,1540226623.0,65.0,2.34,37.99,75.55,8.63
378,chapais,90.0,CA,1540224000.0,73.0,49.78,-74.86,24.8,5.82
379,baherden,20.0,TM,1540226624.0,82.0,38.44,57.43,52.6,2.71
380,kenmare,0.0,IE,1540226624.0,94.0,51.88,-9.58,51.02,7.63
381,onokhino,0.0,RU,1540224000.0,81.0,56.92,65.54,32.0,8.95
382,polyarnyye zori,20.0,RU,1540226625.0,90.0,67.37,32.5,34.82,8.19
383,fort nelson,75.0,CA,1540224000.0,85.0,58.81,-122.69,24.8,2.24
384,brenham,1.0,US,1540224900.0,63.0,30.17,-96.4,60.8,3.36
385,enshi,92.0,CN,1540226625.0,96.0,30.29,109.48,52.01,2.71
386,harer,0.0,US,1540226626.0,48.0,42.19,-111.17,55.7,3.94
387,kalanguy,88.0,RU,1540226626.0,93.0,51.01,116.52,31.58,9.64
388,mandan,1.0,US,1540224900.0,50.0,46.83,-100.89,48.2,9.17
389,port hedland,0.0,AU,1540224000.0,50.0,-20.31,118.58,77.0,11.41
390,luwuk,20.0,ID,1540226627.0,98.0,-0.95,122.79,74.47,2.93
391,ust-tsilma,92.0,RU,1540226627.0,96.0,65.44,52.15,36.71,9.53
392,iskateley,92.0,RU,1540226628.0,97.0,67.68,53.15,33.02,12.44
393,lethem,80.0,GY,1540226628.0,100.0,3.38,-59.8,82.07,4.72
394,airai,0.0,TL,1540226628.0,84.0,-8.93,125.41,64.25,1.48
395,labytnangi,88.0,RU,1540226628.0,85.0,66.66,66.39,22.9,9.64
396,logansport,1.0,US,1540223760.0,53.0,40.75,-86.36,55.4,10.29
397,soyo,48.0,AO,1540226629.0,68.0,-6.13,12.37,83.38,7.52
398,trinidad,75.0,UY,1540224000.0,56.0,-33.52,-56.9,73.4,8.05
399,gallup,1.0,US,1540223580.0,62.0,35.53,-108.74,53.6,5.82
400,byron bay,92.0,AU,1540224000.0,88.0,-28.65,153.62,64.4,5.28
401,cabedelo,76.0,BR,1540226690.0,89.0,-6.97,-34.84,80.72,16.02
402,wilmington,1.0,US,1540224900.0,50.0,39.75,-75.55,51.8,9.17
403,yar-sale,48.0,RU,1540226691.0,100.0,66.83,70.83,21.05,14.34
404,kinshasa,20.0,CD,1540224000.0,78.0,-4.32,15.31,80.6,4.7
405,ostersund,75.0,SE,1540225200.0,91.0,63.18,14.64,35.6,21.92
406,oksfjord,75.0,NO,1540225200.0,70.0,70.24,22.35,42.8,12.75
407,finschhafen,20.0,PG,1540226692.0,93.0,-6.6,147.85,70.42,2.04
408,palmer,1.0,US,1540223760.0,69.0,61.6,-149.11,42.8,11.41
409,sawtell,20.0,AU,1540224000.0,93.0,-30.38,153.1,59.0,5.82
410,neryungri,88.0,RU,1540226693.0,94.0,56.66,124.71,23.66,3.15
411,port-gentil,40.0,GA,1540224000.0,83.0,-0.72,8.78,80.6,11.41
412,arlit,0.0,NE,1540226694.0,15.0,18.74,7.39,88.42,4.5
413,isangel,56.0,VU,1540226694.0,100.0,-19.55,169.27,74.06,20.49
414,nauta,12.0,PE,1540226694.0,57.0,-4.51,-73.58,91.25,3.83
415,bereznik,76.0,RU,1540226695.0,84.0,62.86,42.71,43.87,12.77
416,maniitsoq,0.0,GL,1540226695.0,100.0,65.42,-52.9,16.87,9.42
417,lorengau,24.0,PG,1540226695.0,100.0,-2.02,147.27,82.48,4.61
418,biak,20.0,ID,1540226695.0,98.0,-0.91,122.88,74.47,2.93
419,carauari,76.0,BR,1540226696.0,74.0,-4.88,-66.9,87.97,3.83
420,san quintin,0.0,PH,1540226696.0,85.0,17.54,120.52,66.32,3.04
421,clovis,1.0,US,1540223760.0,58.0,36.83,-119.7,59.0,3.36
422,virginia beach,20.0,US,1540224900.0,50.0,36.85,-75.98,57.2,3.36
423,khasan,80.0,RU,1540226697.0,92.0,42.43,130.64,58.18,10.09
424,udachnyy,56.0,RU,1540226697.0,87.0,66.42,112.4,19.34,2.04
425,shimoda,88.0,JP,1540226698.0,100.0,34.7,138.93,66.73,18.25
426,hualmay,0.0,PE,1540226698.0,62.0,-11.1,-77.61,71.95,5.73
427,port blair,76.0,IN,1540226698.0,100.0,11.67,92.75,82.88,3.6
428,winnemucca,20.0,US,1540223760.0,40.0,40.97,-117.74,51.8,4.7
429,lima,8.0,PE,1540226699.0,53.0,-12.06,-77.04,71.23,2.93
430,quatre cocos,92.0,MU,1540226699.0,100.0,-20.21,57.76,69.88,9.98
431,praya,75.0,ID,1540225800.0,88.0,-8.71,116.27,78.8,3.36
432,roros,0.0,NO,1540225200.0,92.0,62.57,11.38,30.2,8.05
433,faanui,24.0,PF,1540226700.0,95.0,-16.48,-151.75,81.85,12.55
434,tessalit,0.0,ML,1540226701.0,19.0,20.2,1.01,89.81,5.39
435,nara,48.0,JP,1540224480.0,77.0,34.68,135.8,62.6,6.93
436,santa cruz,90.0,US,1540223760.0,87.0,36.97,-122.03,55.4,3.04
437,cabanas,0.0,ES,1540225800.0,59.0,43.42,-8.16,66.2,13.87
438,naryan-mar,92.0,RU,1540226653.0,97.0,67.67,53.09,33.07,11.77
439,belaya gora,76.0,RU,1540226705.0,76.0,68.54,146.19,5.39,4.94
440,kiruna,0.0,SE,1540225200.0,83.0,67.86,20.23,32.0,12.75
441,tairua,0.0,NZ,1540226705.0,86.0,-37.02,175.85,48.95,2.37
442,lucapa,48.0,AO,1540226705.0,93.0,-8.42,20.74,69.29,0.25
443,lagoa,20.0,PT,1540225800.0,73.0,37.14,-8.45,73.4,6.93
444,novoagansk,80.0,RU,1540226706.0,81.0,61.94,76.66,25.1,7.18
445,petropavlovsk-kamchatskiy,0.0,RU,1540224000.0,100.0,53.05,158.65,32.0,6.71
446,nova olimpia,20.0,BR,1540226707.0,100.0,-14.8,-57.29,89.18,4.61
447,grand baie,92.0,MU,1540226707.0,100.0,-20.02,57.58,71.81,9.08
448,qasigiannguit,5.0,GL,1540223400.0,39.0,68.82,-51.19,12.2,4.7
449,lebedinyy,76.0,RU,1540226707.0,90.0,58.52,125.52,22.27,2.59
450,les cayes,36.0,HT,1540226708.0,99.0,18.19,-73.75,84.59,4.16
451,faya,40.0,SA,1540224000.0,93.0,18.39,42.45,60.8,2.15
452,vostok,44.0,RU,1540226768.0,90.0,46.45,135.83,35.05,3.83
453,haverfordwest,0.0,GB,1540223400.0,66.0,51.8,-4.97,53.6,12.75
454,smithers,40.0,CA,1540224000.0,100.0,54.78,-127.17,28.4,5.82
455,sorland,40.0,NO,1540225200.0,100.0,67.67,12.69,42.8,27.51
456,gondar,0.0,PT,1540225800.0,64.0,41.82,-8.78,75.2,1.12
457,tete,20.0,MZ,1540224000.0,34.0,-16.16,33.59,80.6,18.34
458,harper,90.0,US,1540224900.0,62.0,30.3,-99.24,60.8,3.36
459,altay,92.0,CN,1540226770.0,92.0,47.83,88.13,27.17,1.7
460,saint-francois,0.0,FR,1540225800.0,33.0,46.42,3.91,62.6,10.29
461,saint-joseph,0.0,FR,1540225800.0,63.0,43.56,6.97,69.8,4.7
462,ciudad bolivar,92.0,VE,1540226771.0,100.0,8.12,-63.55,74.83,4.61
463,mayo,90.0,CA,1540224000.0,86.0,63.59,-135.9,39.2,8.05
464,erzin,75.0,TR,1540225200.0,60.0,36.95,36.2,71.6,4.7
465,bording,92.0,DK,1540225200.0,70.0,56.15,9.28,48.2,10.29
466,wexford,75.0,US,1540223760.0,52.0,40.63,-80.06,48.2,12.75
467,mehamn,0.0,NO,1540223400.0,80.0,71.03,27.85,35.6,10.29
468,winslow,0.0,GB,1540225200.0,58.0,51.94,-0.88,55.4,3.36
469,calabozo,92.0,VE,1540226773.0,100.0,8.92,-67.43,79.19,4.16
470,constantine,40.0,DZ,1540224000.0,52.0,36.36,6.61,66.2,16.11
471,simpang,90.0,MY,1540224000.0,100.0,4.82,100.71,80.6,2.24
472,sisimiut,0.0,GL,1540226774.0,100.0,66.94,-53.67,8.9,3.94
473,tezu,36.0,IN,1540226774.0,62.0,27.93,96.16,61.78,1.92
474,nenjiang,0.0,CN,1540226775.0,87.0,49.17,125.23,41.35,9.75
475,guymon,1.0,US,1540224900.0,34.0,36.68,-101.48,66.2,10.29
476,kharela,0.0,IN,1540226775.0,37.0,25.55,79.82,70.82,2.82
477,fairbanks,20.0,US,1540223880.0,92.0,64.84,-147.72,28.4,3.38
478,comodoro rivadavia,40.0,AR,1540224000.0,70.0,-45.87,-67.48,46.4,5.82
479,beaverlodge,20.0,CA,1540224000.0,86.0,55.21,-119.43,26.6,2.24
480,kenai,90.0,US,1540223760.0,81.0,60.55,-151.26,42.8,6.93
481,saldanha,0.0,PT,1540226777.0,52.0,41.42,-6.55,60.7,12.21
482,lewiston,1.0,US,1540223760.0,70.0,46.42,-117.02,48.2,3.27
483,axim,32.0,GH,1540226778.0,100.0,4.87,-2.24,81.4,11.77
484,richards bay,0.0,ZA,1540226778.0,89.0,-28.77,32.06,58.67,4.61
485,zhuanghe,64.0,CN,1540226778.0,100.0,39.7,122.97,55.12,19.6
486,alofi,92.0,NU,1540224000.0,88.0,-19.06,-169.92,71.6,11.41
487,manavalakurichi,75.0,IN,1540225800.0,88.0,8.13,77.3,80.6,2.15
488,san andres,68.0,PH,1540226779.0,100.0,13.32,122.68,81.71,16.69
489,ibanda,12.0,UG,1540226779.0,73.0,0.33,30.08,66.68,2.93
490,bukan,0.0,IR,1540226780.0,92.0,36.52,46.21,45.89,4.05
491,meridian,1.0,US,1540223880.0,48.0,32.36,-88.7,64.4,9.17
492,rocha,76.0,UY,1540226780.0,57.0,-34.48,-54.34,72.8,11.77
493,nortelandia,44.0,BR,1540226780.0,78.0,-14.45,-56.8,88.28,4.05
494,haines junction,92.0,CA,1540226781.0,98.0,60.75,-137.51,28.88,2.59
495,derbent,88.0,RU,1540226781.0,96.0,42.06,48.29,53.72,0.81
496,nyurba,88.0,RU,1540226781.0,96.0,63.29,118.35,27.98,2.59
497,bella union,92.0,CO,1540226782.0,99.0,8.5,-73.35,68.62,0.58
498,namibe,92.0,AO,1540226782.0,100.0,-15.19,12.15,74.24,6.73
499,powell,1.0,US,1540225020.0,56.0,40.16,-83.08,55.4,10.29
500,genova,0.0,IT,1540225200.0,29.0,44.41,8.93,66.2,6.93
501,zhangjiakou,0.0,CN,1540226844.0,52.0,40.77,114.88,34.1,10.98
502,moose factory,90.0,CA,1540224000.0,64.0,51.26,-80.61,35.6,9.17
503,kalmar,0.0,SE,1540225200.0,53.0,56.66,16.36,50.0,10.29
504,zolochiv,75.0,UA,1540224000.0,93.0,50.28,35.98,44.6,6.71
505,banda aceh,12.0,ID,1540226845.0,100.0,5.56,95.32,73.52,2.37
506,poum,64.0,MK,1540226845.0,98.0,41.28,20.71,43.46,1.81
507,coahuayana,48.0,MX,1540226845.0,86.0,18.62,-100.35,72.44,3.15
508,ayacucho,75.0,PE,1540224000.0,45.0,-13.16,-74.23,68.0,6.93
509,chumphon,80.0,TH,1540226846.0,98.0,10.5,99.18,73.43,0.36
510,kasama,24.0,ZM,1540226846.0,46.0,-10.21,31.19,71.81,14.12
511,srednekolymsk,20.0,RU,1540226847.0,65.0,67.46,153.71,-3.88,2.48
512,kaeo,76.0,NZ,1540226847.0,100.0,-35.1,173.78,54.4,3.94
513,inverness,40.0,GB,1540225200.0,66.0,57.48,-4.23,53.6,34.45
514,mari-turek,8.0,RU,1540226847.0,78.0,56.79,49.62,37.79,14.23
515,savelugu,32.0,GH,1540226848.0,38.0,9.63,-0.83,93.23,5.95
516,tura,0.0,IN,1540226616.0,88.0,25.52,90.21,67.45,2.26
517,yulara,0.0,AU,1540224000.0,15.0,-25.24,130.99,80.6,12.75
518,agirish,92.0,RU,1540226849.0,85.0,61.92,63.02,33.02,9.08
519,lasa,20.0,CY,1540225800.0,69.0,34.92,32.53,78.8,1.12
520,moyale,0.0,ET,1540226849.0,88.0,3.52,39.05,65.65,3.15
521,zhigansk,0.0,RU,1540226849.0,81.0,66.77,123.37,10.3,5.39
522,coquimbo,75.0,CL,1540224000.0,67.0,-29.95,-71.34,60.8,12.75
523,krasnoarmeysk,0.0,RU,1540224000.0,77.0,56.12,38.15,42.8,11.18
524,logan lake,20.0,CA,1540224000.0,98.0,50.49,-120.81,33.8,3.36
525,sioux lookout,90.0,CA,1540224000.0,81.0,50.1,-91.92,39.2,8.05
526,khani,75.0,GE,1540224000.0,93.0,41.96,42.96,60.8,3.36
527,lady frere,0.0,ZA,1540226851.0,69.0,-31.7,27.23,53.45,2.59
528,vredendal,92.0,ZA,1540226852.0,57.0,-31.68,18.49,77.66,5.61
529,pahrump,1.0,US,1540223880.0,55.0,36.21,-115.98,64.4,10.29
530,ilulissat,5.0,GL,1540223400.0,39.0,69.22,-51.1,12.2,4.7
531,taoudenni,0.0,ML,1540226852.0,25.0,22.68,-3.98,90.98,6.62
532,piracanjuba,80.0,BR,1540226853.0,72.0,-17.3,-49.02,80.63,8.86
533,barranca,24.0,PE,1540226853.0,96.0,-10.75,-77.76,63.22,9.42
534,scarborough,0.0,GB,1540223400.0,62.0,54.28,-0.41,53.6,11.41
535,pavlivka,92.0,UA,1540226854.0,95.0,48.13,39.54,52.82,5.95
536,houston,1.0,US,1540224900.0,59.0,29.76,-95.37,62.6,4.7
537,panacan,75.0,PH,1540224000.0,100.0,7.15,125.66,75.2,4.7
538,minsk,0.0,BY,1540224000.0,70.0,53.9,27.56,42.8,6.71
539,somanda,8.0,TZ,1540226720.0,41.0,-3.37,33.95,77.66,20.49
540,ponta delgada,75.0,PT,1540225800.0,82.0,37.73,-25.67,66.2,20.8
541,kirakira,12.0,SB,1540226855.0,100.0,-10.46,161.92,82.75,3.6
542,rovinj,20.0,HR,1540225800.0,58.0,45.08,13.64,59.0,17.22
543,vila franca do campo,75.0,PT,1540225800.0,82.0,37.72,-25.43,66.2,20.8
544,xining,64.0,CN,1540226856.0,100.0,36.62,101.77,21.73,2.15
545,molepolole,0.0,BW,1540224000.0,18.0,-24.41,25.52,71.6,12.75
546,papara,20.0,BR,1540224000.0,58.0,-3.98,-38.73,87.8,17.22
547,umm lajj,0.0,SA,1540226857.0,99.0,25.02,37.27,76.45,1.7
548,bhadrak,0.0,IN,1540226857.0,87.0,21.06,86.51,72.89,2.93
549,varhaug,75.0,NO,1540225200.0,81.0,58.61,5.65,48.2,23.04
550,lodja,48.0,CD,1540226858.0,90.0,-3.52,23.6,73.75,2.82
551,adre,32.0,TD,1540226919.0,27.0,13.47,22.2,80.5,8.41
552,hay river,75.0,CA,1540224000.0,56.0,60.82,-115.79,32.0,14.99
553,kalianget,68.0,ID,1540226919.0,96.0,-7.35,109.91,68.17,2.59
554,komsomolskiy,88.0,RU,1540226919.0,86.0,67.55,63.78,20.83,13.89
